{"type":"FeatureCollection","features":[
{"type": "Feature", "geometry": {"type": "Point", "coordinates": [-80.8242091, 35.1872043]}, "properties": {"objectid": 1, "advisory": "PRC", "adv_locati": "C3", "name": "Eugene Kiser", "address": "2223 Beverly Dr", "city": "Charlotte", "state": "NC", "zip": 28207.0, "addr_type": "PointAddress", "status": "M"}},
{"type": "Feature", "geometry": {"type": "Point", "coordinates": [-80.8816536, 35.1547665]}, "properties": {"objectid": 2, "advisory": "PRC", "adv_locati": "S1", "name": "VACANT", "address": "1056 Rocky Ridge Dr", "city": "Charlotte", "state": "NC", "zip": 28217.0, "addr_type": "PointAddress", "status": "M"}},
{"type": "Feature", "geometry": {"type": "Point", "coordinates": [-80.9301761, 35.3911488]}, "properties": {"objectid": 3, "advisory": "PRC", "adv_locati": "N1", "name": "Ann Harrison", "address": "6200 Jim Kidd Rd", "city": "Huntersville", "state": "NC", "zip": 28078.0, "addr_type": "PointAddress", "status": "M"}},
{"type": "Feature", "geometry": {"type": "Point", "coordinates": [-80.8354821, 35.4867396]}, "properties": {"objectid": 4, "advisory": "PRC", "adv_locati": "NT", "name": "VACANT", "address": "707 Patrick Johnston Ln", "city": "Davidson", "state": "NC", "zip": 28036.0, "addr_type": "PointAddress", "status": "M"}},
{"type": "Feature", "geometry": {"type": "Point", "coordinates": [-80.6981638, 35.1853028]}, "properties": {"objectid": 5, "advisory": "PRC", "adv_locati": "S3", "name": "Rufus Kearney", "address": "8810 Hunter Green Ln", "city": "Mecklenburg", "state": "NC", "zip": 28227.0, "addr_type": "PointAddress", "status": "M"}},
{"type": "Feature", "geometry": {"type": "Point", "coordinates": [-80.8059941, 35.2218487]}, "properties": {"objectid": 6, "advisory": "PRC", "adv_locati": "C2", "name": "Larken Egleston", "address": "1517 Landis Av", "city": "Charlotte", "state": "NC", "zip": 28205.0, "addr_type": "PointAddress", "status": "M"}},
{"type": "Feature", "geometry": {"type": "Point", "coordinates": [-80.7818146, 35.3527632]}, "properties": {"objectid": 7, "advisory": "PRC", "adv_locati": "N3", "name": "VACANT", "address": "4222 Wynborough Ln", "city": "Charlotte", "state": "NC", "zip": 28269.0, "addr_type": "PointAddress", "status": "M"}},
{"type": "Feature", "geometry": {"type": "Point", "coordinates": [-80.8369954, 35.0496456]}, "properties": {"objectid": 8, "advisory": "PRC", "adv_locati": "S2", "name": "Christina Gratrix", "address": "10601 Flennigan Wy", "city": "Charlotte", "state": "NC", "zip": 28277.0, "addr_type": "PointAddress", "status": "M"}},
{"type": "Feature", "geometry": {"type": "Point", "coordinates": [-80.6650859, 35.1776341]}, "properties": {"objectid": 9, "advisory": "PRC", "adv_locati": "ST", "name": "William Colyer", "address": "6730 Cinnamon Cr", "city": "Mint Hill", "state": "NC", "zip": 28277.0, "addr_type": "PointAddress", "status": "M"}},
{"type": "Feature", "geometry": {"type": "Point", "coordinates": [-80.8142698, 35.211084]}, "properties": {"objectid": 10, "advisory": "PRC", "adv_locati": "AL", "name": "Cowden Rayburn", "address": "2216 E 8th St", "city": "Charlotte", "state": "NC", "zip": 28204.0, "addr_type": "PointAddress", "status": "M"}},
{"type": "Feature", "geometry": {"type": "Point", "coordinates": [-80.8650973, 35.2858436]}, "properties": {"objectid": 11, "advisory": "PRC", "adv_locati": "AL", "name": "Delores Sobowale", "address": "1415 Standish Pl", "city": "Charlotte", "state": "NC", "zip": 28216.0, "addr_type": "PointAddress", "status": "M"}},
{"type": "Feature", "geometry": {"type": "Point", "coordinates": [-80.8561763, 35.4936741]}, "properties": {"objectid": 12, "advisory": "PRC", "adv_locati": "N2", "name": "Donald Morris", "address": "21207 Potts St", "city": "Cornelius", "state": "NC", "zip": 28031.0, "addr_type": "PointAddress", "status": "M"}},
{"type": "Feature", "geometry": {"type": "Point", "coordinates": [-80.8543579, 35.2296114]}, "properties": {"objectid": 13, "advisory": "PRC", "adv_locati": "C1", "name": "Mark Talbot", "address": "435 Clarkson Green St", "city": "Charlotte", "state": "NC", "zip": 28202.0, "addr_type": "PointAddress", "status": "M"}}
]}